[
  {
    "puntos": [
      {
        "orden": 1,
        "latitud": 38.0374,
        "nombreLugar": "Parroquia de Santa María La Mayor",
        "longitud": -4.05598
      },
      {
        "orden": 2,
        "latitud": 38.0371568,
        "nombreLugar": "Calle Altozano Serrano Plato",
        "longitud": -4.0558257
      },
      {
        "orden": 3,
        "latitud": 38.0375873,
        "nombreLugar": "Plaza Santa María",
        "longitud": -4.0556608
      },
      {
        "orden": 4,
        "latitud": 38.0379619,
        "nombreLugar": "Calle del Carmen",
        "longitud": -4.055589
      },
      {
        "orden": 5,
        "latitud": 38.0381895,
        "nombreLugar": "Calle Serpiente",
        "longitud": -4.0552737
      },
      {
        "orden": 6,
        "latitud": 38.0376212,
        "nombreLugar": "Calle José María González Jiménez",
        "longitud": -4.0548176
      },
      {
        "orden": 7,
        "latitud": 38.0371758,
        "nombreLugar": "TRIBUNA",
        "longitud": -4.0542832
      },
      {
        "orden": 8,
        "latitud": 38.0368564,
        "nombreLugar": "Calle Valdivia",
        "longitud": -4.0538668
      },
      {
        "orden": 9,
        "latitud": 38.0364753,
        "nombreLugar": "Calle Maestra",
        "longitud": -4.053691
      },
      {
        "orden": 10,
        "latitud": 38.0362688,
        "nombreLugar": "Plaza del Sol",
        "longitud": -4.0520411
      },
      {
        "orden": 11,
        "latitud": 38.0370126,
        "nombreLugar": "Calle Veintidós de Julio",
        "longitud": -4.0520403
      },
      {
        "orden": 12,
        "latitud": 38.0384637,
        "nombreLugar": "Calle Ollerías",
        "longitud": -4.0536628
      },
      {
        "orden": 13,
        "latitud": 38.0400651,
        "nombreLugar": "Calle San Francisco",
        "longitud": -4.0557558
      },
      {
        "orden": 14,
        "latitud": 38.0395765,
        "nombreLugar": "Plaza el Castillo",
        "longitud": -4.0562772
      },
      {
        "orden": 15,
        "latitud": 38.0383754,
        "nombreLugar": "Calle Serpiente",
        "longitud": -4.0555848
      },
      {
        "orden": 16,
        "latitud": 38.0378785,
        "nombreLugar": "Calle del Carmen VUELTA",
        "longitud": -4.0556694
      },
      {
        "orden": 17,
        "latitud": 38.0376296,
        "nombreLugar": "Plaza Santa María",
        "longitud": -4.0557735
      },
      {
        "orden": 18,
        "latitud": 38.0372498,
        "nombreLugar": "Calle Altozano Serrano Plato",
        "longitud": -4.0557077
      }
    ],
    "procesionNombre": "La Borriquita - Domingo de Ramos"
  },
  {
    "puntos": [
      {
        "orden": 1,
        "latitud": 38.0401421,
        "nombreLugar": "Parroquia San Bartolomé",
        "longitud": -4.0588448
      },
      {
        "orden": 2,
        "latitud": 38.0400048,
        "nombreLugar": "Corredera San Bartolomé IDA",
        "longitud": -4.0588635
      },
      {
        "orden": 3,
        "latitud": 38.0396837,
        "nombreLugar": "Calle Jordán IDA",
        "longitud": -4.0585605
      },
      {
        "orden": 4,
        "latitud": 38.0394345,
        "nombreLugar": "Calle Tiradores IDA",
        "longitud": -4.0581125
      },
      {
        "orden": 5,
        "latitud": 38.0391831,
        "nombreLugar": "Calle Cuna IDA",
        "longitud": -4.0574393
      },
      {
        "orden": 6,
        "latitud": 38.0387057,
        "nombreLugar": "Avd. Doce de Agosto IDA",
        "longitud": -4.0570423
      },
      {
        "orden": 7,
        "latitud": 38.0385578,
        "nombreLugar": "Calle Santa Marina IDA",
        "longitud": -4.056691
      },
      {
        "orden": 8,
        "latitud": 38.0384247,
        "nombreLugar": "Calle Mezquita IDA",
        "longitud": -4.0563235
      },
      {
        "orden": 9,
        "latitud": 38.0384331,
        "nombreLugar": "Calle Alhondiga IDA",
        "longitud": -4.055838
      },
      {
        "orden": 10,
        "latitud": 38.038374,
        "nombreLugar": "Calle Serpiente",
        "longitud": -4.0555644
      },
      {
        "orden": 11,
        "latitud": 38.0380402,
        "nombreLugar": "Calle del Carmen IDA",
        "longitud": -4.0555805
      },
      {
        "orden": 12,
        "latitud": 38.0376262,
        "nombreLugar": "Plaza Santa María IDA",
        "longitud": -4.0557682
      },
      {
        "orden": 13,
        "latitud": 38.0372037,
        "nombreLugar": "Calle Feria IDA",
        "longitud": -4.0554437
      },
      {
        "orden": 14,
        "latitud": 38.0371699,
        "nombreLugar": "TRIBUNA Plaza de España",
        "longitud": -4.054285
      },
      {
        "orden": 15,
        "latitud": 38.037679,
        "nombreLugar": "Plaza de la Constitución VUELTA",
        "longitud": -4.054057
      },
      {
        "orden": 16,
        "latitud": 38.0384627,
        "nombreLugar": "Calle Ollerías VUELTA",
        "longitud": -4.0536547
      },
      {
        "orden": 17,
        "latitud": 38.0401313,
        "nombreLugar": "Calle San Francisco VUELTA",
        "longitud": -4.055441
      },
      {
        "orden": 18,
        "latitud": 38.0399266,
        "nombreLugar": "Plaza Vieja VUELTA",
        "longitud": -4.0565709
      },
      {
        "orden": 19,
        "latitud": 38.0403893,
        "nombreLugar": "Calle Vendederas VUELTA",
        "longitud": -4.0573193
      },
      {
        "orden": 20,
        "latitud": 38.0404759,
        "nombreLugar": "Calle Villegas VUELTA",
        "longitud": -4.0578825
      },
      {
        "orden": 21,
        "latitud": 38.0402562,
        "nombreLugar": "Calle Veracruz VUELTA",
        "longitud": -4.0586255
      },
      {
        "orden": 22,
        "latitud": 38.0400344,
        "nombreLugar": "Corredera San Bartolomé VUELTA",
        "longitud": -4.0587623
      }
    ],
    "procesionNombre": "Procesión Domingo de Ramos - La Vera+Cruz"
  },
  {
    "puntos": [
      {
        "orden": 1,
        "latitud": 38.1792917,
        "nombreLugar": "Basílica y Real Santuario de Nuestra Señora de la Cabeza",
        "longitud": -4.0353299
      },
      {
        "orden": 2,
        "latitud": 38.1789375,
        "nombreLugar": "CALZADA",
        "longitud": -4.0358668
      },
      {
        "orden": 3,
        "latitud": 38.1789396,
        "nombreLugar": "CALZADA 2",
        "longitud": -4.0363067
      },
      {
        "orden": 4,
        "latitud": 38.179433,
        "nombreLugar": "CALZADA 3",
        "longitud": -4.0372937
      },
      {
        "orden": 5,
        "latitud": 38.1792727,
        "nombreLugar": "ARCO DE LA CALZADA",
        "longitud": -4.0385919
      },
      {
        "orden": 6,
        "latitud": 38.1791504,
        "nombreLugar": "PLAZA",
        "longitud": -4.0387073
      },
      {
        "orden": 7,
        "latitud": 38.1783956,
        "nombreLugar": "CARRETERA",
        "longitud": -4.0382245
      },
      {
        "orden": 8,
        "latitud": 38.177976,
        "nombreLugar": "CASA COFRADÍA MATRIZ",
        "longitud": -4.037849
      },
      {
        "orden": 9,
        "latitud": 38.1784821,
        "nombreLugar": "CURVA",
        "longitud": -4.0350327
      },
      {
        "orden": 10,
        "latitud": 38.1784188,
        "nombreLugar": "Punto 10",
        "longitud": -4.0365937
      },
      {
        "orden": 11,
        "latitud": 38.1788236,
        "nombreLugar": "Punto 11",
        "longitud": -4.0362719
      }
    ],
    "procesionNombre": "Vía Crucis Martes Santo - Jesús Cautivo"
  },
  {
    "puntos": [
      {
        "orden": 1,
        "latitud": 38.0374251,
        "nombreLugar": "Santa María 1ª Estación 14ª Estación",
        "longitud": -4.0559719
      },
      {
        "orden": 2,
        "latitud": 38.03701,
        "nombreLugar": "Atz. Serrano Plato 2ª Estación",
        "longitud": -4.0559189
      },
      {
        "orden": 3,
        "latitud": 38.0365294,
        "nombreLugar": "Calle Postigos 3ª Estación",
        "longitud": -4.0548293
      },
      {
        "orden": 4,
        "latitud": 38.0371442,
        "nombreLugar": "TRIBUNA 4ª Estación",
        "longitud": -4.0542928
      },
      {
        "orden": 5,
        "latitud": 38.0375984,
        "nombreLugar": "Calle José María González 5ª Estación",
        "longitud": -4.0547756
      },
      {
        "orden": 6,
        "latitud": 38.0378783,
        "nombreLugar": "Calle Virgen de la Esperanza 5ª Estación",
        "longitud": -4.0552168
      },
      {
        "orden": 7,
        "latitud": 38.0376543,
        "nombreLugar": "Plaza de Santa María",
        "longitud": -4.0558364
      },
      {
        "orden": 8,
        "latitud": 38.0379142,
        "nombreLugar": "Calle Alhondiga 6ª Estación",
        "longitud": -4.0560376
      },
      {
        "orden": 9,
        "latitud": 38.0384085,
        "nombreLugar": "Calle Mezquita 7ª Estación",
        "longitud": -4.056228
      },
      {
        "orden": 10,
        "latitud": 38.0382451,
        "nombreLugar": "Alt. Santa Marina 8ª Estación",
        "longitud": -4.0566974
      },
      {
        "orden": 11,
        "latitud": 38.0378902,
        "nombreLugar": "Calle Principe 9ª Estación",
        "longitud": -4.056912
      },
      {
        "orden": 12,
        "latitud": 38.0378596,
        "nombreLugar": "Calle Fernando Quero",
        "longitud": -4.0573412
      },
      {
        "orden": 13,
        "latitud": 38.0375025,
        "nombreLugar": "Alt. del Convento 10ª Estación",
        "longitud": -4.0573774
      },
      {
        "orden": 14,
        "latitud": 38.0373853,
        "nombreLugar": "Calle Ortega y Gaset 11ª Estación",
        "longitud": -4.0572057
      },
      {
        "orden": 15,
        "latitud": 38.0371276,
        "nombreLugar": "Alt. de Santiago",
        "longitud": -4.0572051
      },
      {
        "orden": 16,
        "latitud": 38.0369084,
        "nombreLugar": "Alt. Arzobispo José Manuel Estepa 12ª Estación",
        "longitud": -4.0561235
      },
      {
        "orden": 17,
        "latitud": 38.037172,
        "nombreLugar": "Alt. Serrano Plato 13ª Estación",
        "longitud": -4.0558586
      }
    ],
    "procesionNombre": "Vía Crucis Martes Santo - Cristo de la Providencia"
  },
  {
    "puntos": [
      {
        "orden": 1,
        "latitud": 38.0365119,
        "nombreLugar": "Parroquia de La Divina Pastora de las Almas",
        "longitud": -4.0471967
      },
      {
        "orden": 2,
        "latitud": 38.0366445,
        "nombreLugar": "Corredera Capuchinos IDA",
        "longitud": -4.0498352
      },
      {
        "orden": 3,
        "latitud": 38.0371792,
        "nombreLugar": "Calle Granados IDA",
        "longitud": -4.0513493
      },
      {
        "orden": 4,
        "latitud": 38.0381791,
        "nombreLugar": "Calle las Monjas IDA",
        "longitud": -4.0520158
      },
      {
        "orden": 5,
        "latitud": 38.0390636,
        "nombreLugar": "Calle ibañez Marín IDA",
        "longitud": -4.0523968
      },
      {
        "orden": 6,
        "latitud": 38.0391301,
        "nombreLugar": "Calle Doctor Montoro IDA",
        "longitud": -4.0539162
      },
      {
        "orden": 7,
        "latitud": 38.0386213,
        "nombreLugar": "Avenida Doce de Agosto IDA",
        "longitud": -4.0554995
      },
      {
        "orden": 8,
        "latitud": 38.0383205,
        "nombreLugar": "Calle Serpiente IDA",
        "longitud": -4.0554507
      },
      {
        "orden": 9,
        "latitud": 38.0376212,
        "nombreLugar": "Calle José María González Jiménez IDA",
        "longitud": -4.0548176
      },
      {
        "orden": 10,
        "latitud": 38.0371462,
        "nombreLugar": "TRIBUNA",
        "longitud": -4.0542939
      },
      {
        "orden": 11,
        "latitud": 38.0368564,
        "nombreLugar": "Calle San Miguel VUELTA",
        "longitud": -4.0538668
      },
      {
        "orden": 12,
        "latitud": 38.036586,
        "nombreLugar": "Calle Valdivia VUELTA",
        "longitud": -4.0538078
      },
      {
        "orden": 13,
        "latitud": 38.0364753,
        "nombreLugar": "Calle Maestra VUELTA",
        "longitud": -4.053691
      },
      {
        "orden": 14,
        "latitud": 38.0363638,
        "nombreLugar": "Altozano Virgen María VUELTA",
        "longitud": -4.0524532
      },
      {
        "orden": 15,
        "latitud": 38.0363871,
        "nombreLugar": "Plaza del Sol VUELTA",
        "longitud": -4.0521001
      },
      {
        "orden": 16,
        "latitud": 38.0365219,
        "nombreLugar": "Corredera Capuchinos VUELTA",
        "longitud": -4.0510422
      }
    ],
    "procesionNombre": "Procesión Miércoles Santo - El Huerto"
  },
  {
    "puntos": [
      {
        "orden": 1,
        "latitud": 38.0374,
        "nombreLugar": "Parroquia de Santa María La Mayor",
        "longitud": -4.05598
      },
      {
        "orden": 2,
        "latitud": 38.0371695,
        "nombreLugar": "Calle Altozano Serrano Plato IDA",
        "longitud": -4.0558364
      },
      {
        "orden": 3,
        "latitud": 38.036724,
        "nombreLugar": "Calle Alférez Moreno IDA",
        "longitud": -4.0558497
      },
      {
        "orden": 4,
        "latitud": 38.0364534,
        "nombreLugar": "Calle Postigos IDA",
        "longitud": -4.0548757
      },
      {
        "orden": 5,
        "latitud": 38.0371547,
        "nombreLugar": "TRIBUNA",
        "longitud": -4.0542885
      },
      {
        "orden": 6,
        "latitud": 38.0377431,
        "nombreLugar": "Plaza Constitución VUELTA",
        "longitud": -4.054004
      },
      {
        "orden": 7,
        "latitud": 38.0384637,
        "nombreLugar": "Calle Ollerías VUELTA",
        "longitud": -4.0536628
      },
      {
        "orden": 8,
        "latitud": 38.0400179,
        "nombreLugar": "Plaza de la Autonomía VUELTA",
        "longitud": -4.0551076
      },
      {
        "orden": 9,
        "latitud": 38.0400651,
        "nombreLugar": "Calle San Francisco VUELTA",
        "longitud": -4.0557558
      },
      {
        "orden": 10,
        "latitud": 38.0396441,
        "nombreLugar": "Plaza el Castillo VUELTA",
        "longitud": -4.0562826
      },
      {
        "orden": 11,
        "latitud": 38.0389342,
        "nombreLugar": "Calle Isidoro Miñón VUELTA",
        "longitud": -4.0560098
      },
      {
        "orden": 12,
        "latitud": 38.0383205,
        "nombreLugar": "Calle Serpiente VUELTA",
        "longitud": -4.0554507
      },
      {
        "orden": 13,
        "latitud": 38.0379672,
        "nombreLugar": "Calle del Carmen VUELTA",
        "longitud": -4.0556158
      },
      {
        "orden": 14,
        "latitud": 38.0376296,
        "nombreLugar": "Plaza Santa María. VUELTA",
        "longitud": -4.0557735
      },
      {
        "orden": 15,
        "latitud": 38.0372244,
        "nombreLugar": "Calle Altozano Serrano Plato VUELTA",
        "longitud": -4.0557291
      }
    ],
    "procesionNombre": "Procesión de la Paciencia - Miércoles Santo"
  },
  {
    "puntos": [
      {
        "orden": 1,
        "latitud": 38.0390804,
        "nombreLugar": "Capilla del Buen Remedio",
        "longitud": -4.0575047
      },
      {
        "orden": 2,
        "latitud": 38.0388861,
        "nombreLugar": "Calle de la Cuna IDA",
        "longitud": -4.0573867
      },
      {
        "orden": 3,
        "latitud": 38.0386636,
        "nombreLugar": "Avenida Doce de Agosto IDA",
        "longitud": -4.0564543
      },
      {
        "orden": 4,
        "latitud": 38.0383205,
        "nombreLugar": "Calle Serpiente IDA",
        "longitud": -4.0554507
      },
      {
        "orden": 5,
        "latitud": 38.0379672,
        "nombreLugar": "Calle del Carmen IDA",
        "longitud": -4.0556158
      },
      {
        "orden": 6,
        "latitud": 38.0376296,
        "nombreLugar": "Plaza Santa María IDA",
        "longitud": -4.0557735
      },
      {
        "orden": 7,
        "latitud": 38.0371118,
        "nombreLugar": "Calle la Feria IDA",
        "longitud": -4.0551648
      },
      {
        "orden": 8,
        "latitud": 38.0371504,
        "nombreLugar": "TRIBUNA",
        "longitud": -4.0542885
      },
      {
        "orden": 9,
        "latitud": 38.0373528,
        "nombreLugar": "Plaza Beato Marcos Criado VUELTA",
        "longitud": -4.0540298
      },
      {
        "orden": 10,
        "latitud": 38.0371711,
        "nombreLugar": "Calle Truco VUELTA",
        "longitud": -4.0535115
      },
      {
        "orden": 11,
        "latitud": 38.0366335,
        "nombreLugar": "Calle Hoyo VUELTA",
        "longitud": -4.0525747
      },
      {
        "orden": 12,
        "latitud": 38.0363673,
        "nombreLugar": "Altozano Virgen María VUELTA",
        "longitud": -4.0523546
      },
      {
        "orden": 13,
        "latitud": 38.0364761,
        "nombreLugar": "Plaza del Sol VUELTA",
        "longitud": -4.0521119
      },
      {
        "orden": 14,
        "latitud": 38.0368468,
        "nombreLugar": "Calle 22 de Julio VUELTA",
        "longitud": -4.0520717
      },
      {
        "orden": 15,
        "latitud": 38.0384637,
        "nombreLugar": "Calle Ollerías VUELTA",
        "longitud": -4.0536628
      },
      {
        "orden": 16,
        "latitud": 38.0400179,
        "nombreLugar": "Plaza de la Autonomía VUELTA",
        "longitud": -4.0551076
      },
      {
        "orden": 17,
        "latitud": 38.0400651,
        "nombreLugar": "Calle San Francisco VUELTA",
        "longitud": -4.0557558
      },
      {
        "orden": 18,
        "latitud": 38.0396863,
        "nombreLugar": "Plaza del Castillo",
        "longitud": -4.05629
      },
      {
        "orden": 19,
        "latitud": 38.0393843,
        "nombreLugar": "Plaza el Castillo VUELTA",
        "longitud": -4.0565266
      },
      {
        "orden": 20,
        "latitud": 38.0389667,
        "nombreLugar": "Calle Fernando Quero VUELTA",
        "longitud": -4.057057
      },
      {
        "orden": 21,
        "latitud": 38.0390508,
        "nombreLugar": "Calle de la Cuna VUELTA",
        "longitud": -4.0573652
      }
    ],
    "procesionNombre": "Procesión Jueves Santo - El Buen Remedio"
  },
  {
    "puntos": [
      {
        "orden": 1,
        "latitud": 38.0371366,
        "nombreLugar": "Iglesia de San Miguel Arcángel",
        "longitud": -4.0538961
      },
      {
        "orden": 2,
        "latitud": 38.0372489,
        "nombreLugar": "Calle Valenciana IDA",
        "longitud": -4.0536364
      },
      {
        "orden": 3,
        "latitud": 38.0377001,
        "nombreLugar": "Calle Hoyo IDA",
        "longitud": -4.0534764
      },
      {
        "orden": 4,
        "latitud": 38.0376381,
        "nombreLugar": "Plaza Constitución IDA",
        "longitud": -4.0537633
      },
      {
        "orden": 5,
        "latitud": 38.0371631,
        "nombreLugar": "TRIBUNA",
        "longitud": -4.0542939
      },
      {
        "orden": 6,
        "latitud": 38.0368564,
        "nombreLugar": "Calle San Miguel VUELTA",
        "longitud": -4.0538668
      },
      {
        "orden": 7,
        "latitud": 38.0366198,
        "nombreLugar": "Calle Valdivia VUELTA",
        "longitud": -4.0538239
      },
      {
        "orden": 8,
        "latitud": 38.0364795,
        "nombreLugar": "Calle Maestra VUELTA",
        "longitud": -4.0534013
      },
      {
        "orden": 9,
        "latitud": 38.0363773,
        "nombreLugar": "Calle Altozano de la Virgen María VUELTA",
        "longitud": -4.0523678
      },
      {
        "orden": 10,
        "latitud": 38.0364294,
        "nombreLugar": "Plaza del Sol VUELTA",
        "longitud": -4.0521055
      },
      {
        "orden": 11,
        "latitud": 38.0370126,
        "nombreLugar": "Calle Veintidós de Julio VUELTA",
        "longitud": -4.0520403
      },
      {
        "orden": 12,
        "latitud": 38.0384637,
        "nombreLugar": "Calle Ollerías VUELTA",
        "longitud": -4.0536628
      },
      {
        "orden": 13,
        "latitud": 38.0400179,
        "nombreLugar": "Plaza de la Autonomía VUELTA",
        "longitud": -4.0551076
      },
      {
        "orden": 14,
        "latitud": 38.0403274,
        "nombreLugar": "Calle San Antonio VUELTA",
        "longitud": -4.055045
      },
      {
        "orden": 15,
        "latitud": 38.0409764,
        "nombreLugar": "Calle Hermanos Carvajal VUELTA",
        "longitud": -4.0559294
      },
      {
        "orden": 16,
        "latitud": 38.0411856,
        "nombreLugar": "Calle Jesús María VUELTA",
        "longitud": -4.0569682
      },
      {
        "orden": 17,
        "latitud": 38.04137,
        "nombreLugar": "Altozano la Victoria VUELTA",
        "longitud": -4.058251
      },
      {
        "orden": 18,
        "latitud": 38.0405106,
        "nombreLugar": "Calle Vendederas VUELTA",
        "longitud": -4.0575187
      },
      {
        "orden": 19,
        "latitud": 38.0399169,
        "nombreLugar": "Plaza Vieja VUELTA",
        "longitud": -4.056759
      },
      {
        "orden": 20,
        "latitud": 38.0396564,
        "nombreLugar": "Calle Tiradores VUELTA",
        "longitud": -4.0573877
      },
      {
        "orden": 21,
        "latitud": 38.0390641,
        "nombreLugar": "Calle Cuna VUELTA",
        "longitud": -4.0574463
      },
      {
        "orden": 22,
        "latitud": 38.0386432,
        "nombreLugar": "Doce de Agosto VUELTA",
        "longitud": -4.0564956
      },
      {
        "orden": 23,
        "latitud": 38.0383703,
        "nombreLugar": "Calle Serpiente VUELTA",
        "longitud": -4.0555828
      },
      {
        "orden": 24,
        "latitud": 38.0376296,
        "nombreLugar": "Plaza Santa María VUELTA",
        "longitud": -4.0557735
      },
      {
        "orden": 25,
        "latitud": 38.0371695,
        "nombreLugar": "Calle Altozano Serrano Plato VUELTA",
        "longitud": -4.0558364
      },
      {
        "orden": 26,
        "latitud": 38.0367705,
        "nombreLugar": "Calle Alférez Moreno VUELTA",
        "longitud": -4.055678
      },
      {
        "orden": 27,
        "latitud": 38.0364534,
        "nombreLugar": "Calle Postigos VUELTA",
        "longitud": -4.0548757
      },
      {
        "orden": 28,
        "latitud": 38.0373448,
        "nombreLugar": "Plaza de España VUELTA",
        "longitud": -4.0544065
      },
      {
        "orden": 29,
        "latitud": 38.0380238,
        "nombreLugar": "Calle Carmen VUELTA",
        "longitud": -4.0555936
      }
    ],
    "procesionNombre": "Procesión Jueves Santo - El Gran Poder"
  },
  {
    "puntos": [
      {
        "orden": 1,
        "latitud": 38.0374,
        "nombreLugar": "Parroquia de Santa María La Mayor",
        "longitud": -4.05598
      },
      {
        "orden": 2,
        "latitud": 38.0372202,
        "nombreLugar": "Calle Altozano Serrano Plato IDA",
        "longitud": -4.0558257
      },
      {
        "orden": 3,
        "latitud": 38.0372597,
        "nombreLugar": "Calle la Feria IDA",
        "longitud": -4.0555564
      },
      {
        "orden": 4,
        "latitud": 38.0375324,
        "nombreLugar": "Plaza Santa María IDA",
        "longitud": -4.0555911
      },
      {
        "orden": 5,
        "latitud": 38.0377381,
        "nombreLugar": "Calle NTRA. SRA. DE LA ESPERANZA IDA",
        "longitud": -4.0553566
      },
      {
        "orden": 6,
        "latitud": 38.038234,
        "nombreLugar": "Calle Guadalupe IDA",
        "longitud": -4.0547844
      },
      {
        "orden": 7,
        "latitud": 38.0377389,
        "nombreLugar": "Plaza Constitución IDA",
        "longitud": -4.0539826
      },
      {
        "orden": 8,
        "latitud": 38.0371673,
        "nombreLugar": "Plaza de España",
        "longitud": -4.0542939
      },
      {
        "orden": 9,
        "latitud": 38.0368564,
        "nombreLugar": "Calle Valdivia VUELTA",
        "longitud": -4.0538668
      },
      {
        "orden": 10,
        "latitud": 38.0364753,
        "nombreLugar": "Calle Maestra VUELTA",
        "longitud": -4.053691
      },
      {
        "orden": 11,
        "latitud": 38.0364018,
        "nombreLugar": "Altozano Virgen María VUELTA",
        "longitud": -4.0525283
      },
      {
        "orden": 12,
        "latitud": 38.0364251,
        "nombreLugar": "Plaza del Sol VUELTA",
        "longitud": -4.0521001
      },
      {
        "orden": 13,
        "latitud": 38.0370126,
        "nombreLugar": "Calle Veintidós de Julio VUELTA",
        "longitud": -4.0520403
      },
      {
        "orden": 14,
        "latitud": 38.0379905,
        "nombreLugar": "Calle Ollerías VUELTA",
        "longitud": -4.0530405
      },
      {
        "orden": 15,
        "latitud": 38.0400179,
        "nombreLugar": "Plaza de la Autonomía VUELTA",
        "longitud": -4.0551076
      },
      {
        "orden": 16,
        "latitud": 38.0400651,
        "nombreLugar": "Calle San Francisco VUELTA",
        "longitud": -4.0557558
      },
      {
        "orden": 17,
        "latitud": 38.0399419,
        "nombreLugar": "Plaza Vĩeja",
        "longitud": -4.0563574
      },
      {
        "orden": 18,
        "latitud": 38.0396103,
        "nombreLugar": "Plaza el Castillo VUELTA",
        "longitud": -4.0562933
      },
      {
        "orden": 19,
        "latitud": 38.0389342,
        "nombreLugar": "Calle Isidoro Miñón VUELTA",
        "longitud": -4.0560098
      },
      {
        "orden": 20,
        "latitud": 38.0383205,
        "nombreLugar": "Calle Serpiente VUELTA",
        "longitud": -4.0554507
      },
      {
        "orden": 21,
        "latitud": 38.0379672,
        "nombreLugar": "Calle del Carmen VUELTA",
        "longitud": -4.0556158
      },
      {
        "orden": 22,
        "latitud": 38.0376296,
        "nombreLugar": "Plaza Santa María VUELTA",
        "longitud": -4.0557735
      },
      {
        "orden": 23,
        "latitud": 38.0372625,
        "nombreLugar": "Calle Altozano Serrano Plato VUELTA",
        "longitud": -4.0557506
      }
    ],
    "procesionNombre": "Procesión Jueves Santo - La Esperanza"
  },
  {
    "puntos": [
      {
        "orden": 1,
        "latitud": 38.0370017,
        "nombreLugar": "Iglesia de San Miguel",
        "longitud": -4.0540629
      },
      {
        "orden": 2,
        "latitud": 38.0368865,
        "nombreLugar": "Calle San Miguel IDA",
        "longitud": -4.0540414
      },
      {
        "orden": 3,
        "latitud": 38.0366447,
        "nombreLugar": "Calle Valdivia IDA",
        "longitud": -4.0538201
      },
      {
        "orden": 4,
        "latitud": 38.0365026,
        "nombreLugar": "Calle Maestra IDA",
        "longitud": -4.0531697
      },
      {
        "orden": 5,
        "latitud": 38.0363711,
        "nombreLugar": "Alt. Virgen María IDA",
        "longitud": -4.0523704
      },
      {
        "orden": 6,
        "latitud": 38.0364646,
        "nombreLugar": "Plaza del Sol IDA",
        "longitud": -4.0521082
      },
      {
        "orden": 7,
        "latitud": 38.0369256,
        "nombreLugar": "Calle 22 de Julio IDA",
        "longitud": -4.0520586
      },
      {
        "orden": 8,
        "latitud": 38.0384536,
        "nombreLugar": "Calle Ollerías IDA",
        "longitud": -4.0536485
      },
      {
        "orden": 9,
        "latitud": 38.0400714,
        "nombreLugar": "Plaza de la Autonomía IDA",
        "longitud": -4.0551026
      },
      {
        "orden": 10,
        "latitud": 38.0401031,
        "nombreLugar": "Calle San Francisco IDA",
        "longitud": -4.0556236
      },
      {
        "orden": 11,
        "latitud": 38.039903,
        "nombreLugar": "Plaza Vieja IDA",
        "longitud": -4.0565675
      },
      {
        "orden": 12,
        "latitud": 38.0396965,
        "nombreLugar": "Calle Tiradores IDA",
        "longitud": -4.0572817
      },
      {
        "orden": 13,
        "latitud": 38.0391736,
        "nombreLugar": "Calle Cuna IDA",
        "longitud": -4.0574366
      },
      {
        "orden": 14,
        "latitud": 38.0386999,
        "nombreLugar": "Calle Doctor Fleming IDA",
        "longitud": -4.0572502
      },
      {
        "orden": 15,
        "latitud": 38.0386487,
        "nombreLugar": "Calle 12 de Agosto IDA",
        "longitud": -4.0563335
      },
      {
        "orden": 16,
        "latitud": 38.0383999,
        "nombreLugar": "Calle Serpiente IDA",
        "longitud": -4.0556026
      },
      {
        "orden": 17,
        "latitud": 38.0380535,
        "nombreLugar": "Calle Guadalupe IDA",
        "longitud": -4.0544982
      },
      {
        "orden": 18,
        "latitud": 38.0377472,
        "nombreLugar": "Plaza de la Contitución",
        "longitud": -4.0539832
      },
      {
        "orden": 19,
        "latitud": 38.0371667,
        "nombreLugar": "TRIBUNA",
        "longitud": -4.0542937
      }
    ],
    "procesionNombre": "Procesión Viernes Santo - Señor de los Señores"
  },
  {
    "puntos": [
      {
        "orden": 1,
        "latitud": 38.0386179,
        "nombreLugar": "CONVENTO SAN JUAN DE DIOS",
        "longitud": -4.0537164
      },
      {
        "orden": 2,
        "latitud": 38.038265,
        "nombreLugar": "Calle Ollerías IDA",
        "longitud": -4.053396
      },
      {
        "orden": 3,
        "latitud": 38.0386855,
        "nombreLugar": "Calle Juego Pelotas IDA",
        "longitud": -4.0530752
      },
      {
        "orden": 4,
        "latitud": 38.0391624,
        "nombreLugar": "Calle Ibáñez Marín IDA",
        "longitud": -4.0529401
      },
      {
        "orden": 5,
        "latitud": 38.0391217,
        "nombreLugar": "Calle Doctor Montoro",
        "longitud": -4.0536695
      },
      {
        "orden": 6,
        "latitud": 38.0394608,
        "nombreLugar": "Calle Ollerías",
        "longitud": -4.0546177
      },
      {
        "orden": 7,
        "latitud": 38.0400179,
        "nombreLugar": "Plaza de la Autonomía",
        "longitud": -4.0551076
      },
      {
        "orden": 8,
        "latitud": 38.0400651,
        "nombreLugar": "Calle San Francisco",
        "longitud": -4.0557558
      },
      {
        "orden": 9,
        "latitud": 38.0396614,
        "nombreLugar": "Calle Tiradores",
        "longitud": -4.0573524
      },
      {
        "orden": 10,
        "latitud": 38.0390973,
        "nombreLugar": "Calle de la Cuna",
        "longitud": -4.0574135
      },
      {
        "orden": 11,
        "latitud": 38.0386823,
        "nombreLugar": "Calle Doctor Fleming",
        "longitud": -4.057261
      },
      {
        "orden": 12,
        "latitud": 38.0386805,
        "nombreLugar": "Avenida Doce de Agosto",
        "longitud": -4.0567708
      },
      {
        "orden": 13,
        "latitud": 38.0385354,
        "nombreLugar": "Calle Santa Marina",
        "longitud": -4.0566917
      },
      {
        "orden": 14,
        "latitud": 38.0384053,
        "nombreLugar": "Calle Mezquita",
        "longitud": -4.0562462
      },
      {
        "orden": 15,
        "latitud": 38.0383866,
        "nombreLugar": "Calle Alhóndiga",
        "longitud": -4.0558515
      },
      {
        "orden": 16,
        "latitud": 38.0383131,
        "nombreLugar": "Calle Serpiente",
        "longitud": -4.0554582
      },
      {
        "orden": 17,
        "latitud": 38.0379699,
        "nombreLugar": "Calle del Carmen",
        "longitud": -4.0556162
      },
      {
        "orden": 18,
        "latitud": 38.0375876,
        "nombreLugar": "Plaza Santa María",
        "longitud": -4.0556779
      },
      {
        "orden": 19,
        "latitud": 38.0377397,
        "nombreLugar": "Calle Virgen de la Esperanza",
        "longitud": -4.0553668
      },
      {
        "orden": 20,
        "latitud": 38.038234,
        "nombreLugar": "Calle Guadalupe",
        "longitud": -4.0547844
      },
      {
        "orden": 21,
        "latitud": 38.0377389,
        "nombreLugar": "Plaza Constitución",
        "longitud": -4.0539826
      },
      {
        "orden": 22,
        "latitud": 38.0371652,
        "nombreLugar": "TRIBUNA",
        "longitud": -4.0543019
      },
      {
        "orden": 23,
        "latitud": 38.0368564,
        "nombreLugar": "Calle San Miguel",
        "longitud": -4.0538668
      },
      {
        "orden": 24,
        "latitud": 38.0365606,
        "nombreLugar": "Calle Valdivia",
        "longitud": -4.0538132
      },
      {
        "orden": 25,
        "latitud": 38.0364911,
        "nombreLugar": "Calle Maestra",
        "longitud": -4.0533866
      },
      {
        "orden": 26,
        "latitud": 38.0364218,
        "nombreLugar": "Altozano Virgen María",
        "longitud": -4.0525149
      },
      {
        "orden": 27,
        "latitud": 38.0364526,
        "nombreLugar": "Plaza del Sol",
        "longitud": -4.0521162
      },
      {
        "orden": 28,
        "latitud": 38.0370126,
        "nombreLugar": "Calle Veintidós de Julio",
        "longitud": -4.0520403
      },
      {
        "orden": 29,
        "latitud": 38.0377159,
        "nombreLugar": "Calle Ollerías",
        "longitud": -4.0526529
      },
      {
        "orden": 30,
        "latitud": 38.0384241,
        "nombreLugar": "Calle Caldederos",
        "longitud": -4.0525129
      },
      {
        "orden": 31,
        "latitud": 38.0390769,
        "nombreLugar": "Calle Ibañez Marín VUELTA",
        "longitud": -4.0524459
      },
      {
        "orden": 32,
        "latitud": 38.0389058,
        "nombreLugar": "Calle Juego Pelotas VUELTA",
        "longitud": -4.0528992
      },
      {
        "orden": 33,
        "latitud": 38.0383798,
        "nombreLugar": "Calle Ollerías VUELTA",
        "longitud": -4.0536019
      }
    ],
    "procesionNombre": "Procesión Viernes Santo - Las Angustias"
  },
  {
    "puntos": [
      {
        "orden": 1,
        "latitud": 38.0401552,
        "nombreLugar": "Parroquia de San Bartolomé",
        "longitud": -4.0588014
      },
      {
        "orden": 2,
        "latitud": 38.0399077,
        "nombreLugar": "Calle Corredera San Bartolomé IDA",
        "longitud": -4.0574455
      },
      {
        "orden": 3,
        "latitud": 38.0398322,
        "nombreLugar": "Plaza Vĩeja IDA",
        "longitud": -4.056816
      },
      {
        "orden": 4,
        "latitud": 38.0393611,
        "nombreLugar": "Plaza el Castillo",
        "longitud": -4.0566474
      },
      {
        "orden": 5,
        "latitud": 38.0389342,
        "nombreLugar": "Calle Isidoro Miñón IDA",
        "longitud": -4.0560098
      },
      {
        "orden": 6,
        "latitud": 38.0383205,
        "nombreLugar": "Calle Serpiente IDA",
        "longitud": -4.0554507
      },
      {
        "orden": 7,
        "latitud": 38.0376684,
        "nombreLugar": "Calle Ntra. Sra. de la Esperanza IDA",
        "longitud": -4.0554102
      },
      {
        "orden": 8,
        "latitud": 38.0373592,
        "nombreLugar": "Plaza Santa María IDA",
        "longitud": -4.0555482
      },
      {
        "orden": 9,
        "latitud": 38.0371118,
        "nombreLugar": "Calle la Feria IDA",
        "longitud": -4.0551648
      },
      {
        "orden": 10,
        "latitud": 38.0369223,
        "nombreLugar": "Plaza de España IDA",
        "longitud": -4.0545675
      },
      {
        "orden": 11,
        "latitud": 38.037142,
        "nombreLugar": "TRIBUNA",
        "longitud": -4.0542885
      },
      {
        "orden": 12,
        "latitud": 38.0376365,
        "nombreLugar": "Plaza Constitución VUELTA",
        "longitud": -4.05376
      },
      {
        "orden": 13,
        "latitud": 38.0384637,
        "nombreLugar": "Calle Ollerías VUELTA",
        "longitud": -4.0536628
      },
      {
        "orden": 14,
        "latitud": 38.0396382,
        "nombreLugar": "Calle Ollerías VUELTA",
        "longitud": -4.0547464
      },
      {
        "orden": 15,
        "latitud": 38.0400179,
        "nombreLugar": "Plaza de la Autonomía VUELTA",
        "longitud": -4.0551076
      },
      {
        "orden": 16,
        "latitud": 38.0400651,
        "nombreLugar": "Calle San Francisco VUELTA",
        "longitud": -4.0557558
      },
      {
        "orden": 17,
        "latitud": 38.0399208,
        "nombreLugar": "Plaza Vĩeja VUELTA",
        "longitud": -4.0566873
      },
      {
        "orden": 18,
        "latitud": 38.0403697,
        "nombreLugar": "Calle Vendederas",
        "longitud": -4.0572823
      },
      {
        "orden": 19,
        "latitud": 38.0405109,
        "nombreLugar": "Calle Villegas",
        "longitud": -4.0584291
      },
      {
        "orden": 20,
        "latitud": 38.0405323,
        "nombreLugar": "Calle Aire",
        "longitud": -4.0591154
      },
      {
        "orden": 21,
        "latitud": 38.0400513,
        "nombreLugar": "Calle Corredera San Bartolomé VUELTA",
        "longitud": -4.0591406
      }
    ],
    "procesionNombre": "Procesión Viernes Santo - Los Estudiantes"
  },
  {
    "puntos": [
      {
        "orden": 1,
        "latitud": 38.0401137,
        "nombreLugar": "Iglesia de San Bartolomé",
        "longitud": -4.0588623
      },
      {
        "orden": 2,
        "latitud": 38.040025,
        "nombreLugar": "Corredera San Bartolomé IDA",
        "longitud": -4.0587765
      },
      {
        "orden": 3,
        "latitud": 38.0402885,
        "nombreLugar": "Calle Veracruz IDA",
        "longitud": -4.058625
      },
      {
        "orden": 4,
        "latitud": 38.0405098,
        "nombreLugar": "Calle Villegas IDA",
        "longitud": -4.0588918
      },
      {
        "orden": 5,
        "latitud": 38.0408742,
        "nombreLugar": "Calle Colladas",
        "longitud": -4.0590668
      },
      {
        "orden": 6,
        "latitud": 38.0410136,
        "nombreLugar": "Calle Baena",
        "longitud": -4.058635
      },
      {
        "orden": 7,
        "latitud": 38.0408784,
        "nombreLugar": "Calle Vendederas",
        "longitud": -4.0578967
      },
      {
        "orden": 8,
        "latitud": 38.0399384,
        "nombreLugar": "Plaza Vieja",
        "longitud": -4.0565006
      },
      {
        "orden": 9,
        "latitud": 38.0397255,
        "nombreLugar": "Plaza del Castillo",
        "longitud": -4.0562941
      },
      {
        "orden": 10,
        "latitud": 38.0391847,
        "nombreLugar": "Calle Isidoro Miñon",
        "longitud": -4.0561446
      },
      {
        "orden": 11,
        "latitud": 38.0381797,
        "nombreLugar": "Calle Alhondiga",
        "longitud": -4.0559377
      },
      {
        "orden": 12,
        "latitud": 38.0376236,
        "nombreLugar": "Plaza de Santa María",
        "longitud": -4.0557741
      },
      {
        "orden": 13,
        "latitud": 38.0377034,
        "nombreLugar": "Calle Virgen de la Esperanza",
        "longitud": -4.0554153
      },
      {
        "orden": 14,
        "latitud": 38.0376167,
        "nombreLugar": "Calle José María González",
        "longitud": -4.0548024
      },
      {
        "orden": 15,
        "latitud": 38.0371647,
        "nombreLugar": "TRIBUNA",
        "longitud": -4.0542921
      },
      {
        "orden": 16,
        "latitud": 38.037106,
        "nombreLugar": "Calle Feria",
        "longitud": -4.0551471
      },
      {
        "orden": 17,
        "latitud": 38.0371916,
        "nombreLugar": "Alt. Serrano Plato",
        "longitud": -4.0558203
      },
      {
        "orden": 18,
        "latitud": 38.036917,
        "nombreLugar": "Alt. Arzobispo José Manuel Estepa",
        "longitud": -4.056104
      },
      {
        "orden": 19,
        "latitud": 38.036871,
        "nombreLugar": "Calle Aduana",
        "longitud": -4.0568463
      },
      {
        "orden": 20,
        "latitud": 38.0371446,
        "nombreLugar": "Alt. de Santiago",
        "longitud": -4.0572003
      },
      {
        "orden": 21,
        "latitud": 38.0375222,
        "nombreLugar": "Alt. del convento",
        "longitud": -4.0573767
      },
      {
        "orden": 22,
        "latitud": 38.0378819,
        "nombreLugar": "Calle Fernando Quero",
        "longitud": -4.0573304
      },
      {
        "orden": 23,
        "latitud": 38.038702,
        "nombreLugar": "Calle Doctor Fleming",
        "longitud": -4.0572399
      },
      {
        "orden": 24,
        "latitud": 38.0391754,
        "nombreLugar": "Calle Cuna",
        "longitud": -4.0574277
      },
      {
        "orden": 25,
        "latitud": 38.0394191,
        "nombreLugar": "Calle Tiradores",
        "longitud": -4.0581312
      },
      {
        "orden": 26,
        "latitud": 38.0397539,
        "nombreLugar": "Calle Jordán",
        "longitud": -4.0585644
      },
      {
        "orden": 27,
        "latitud": 38.0400111,
        "nombreLugar": "Corredera San Bartolomé VUELTA",
        "longitud": -4.0588534
      }
    ],
    "procesionNombre": "Procesión Viernes Santo - Santo Sepulcro"
  },
  {
    "puntos": [
      {
        "orden": 1,
        "latitud": 38.0404702,
        "nombreLugar": "Parroquia de San Bartolomé",
        "longitud": -4.058914
      },
      {
        "orden": 2,
        "latitud": 38.0408262,
        "nombreLugar": "Calle Colladas",
        "longitud": -4.0590669
      },
      {
        "orden": 3,
        "latitud": 38.041668,
        "nombreLugar": "Calle Jesús María",
        "longitud": -4.0586753
      },
      {
        "orden": 4,
        "latitud": 38.0410322,
        "nombreLugar": "Calle Hermanos Carvajal",
        "longitud": -4.0562358
      },
      {
        "orden": 5,
        "latitud": 38.0403762,
        "nombreLugar": "Calle San Antonio",
        "longitud": -4.0550489
      },
      {
        "orden": 6,
        "latitud": 38.0400879,
        "nombreLugar": "Plaza de la Autonomía",
        "longitud": -4.0551012
      },
      {
        "orden": 7,
        "latitud": 38.0400733,
        "nombreLugar": "Calle San Francisco",
        "longitud": -4.0557298
      },
      {
        "orden": 8,
        "latitud": 38.0398684,
        "nombreLugar": "Plaza del Castillo",
        "longitud": -4.0563347
      },
      {
        "orden": 9,
        "latitud": 38.0387583,
        "nombreLugar": "Calle Isidoro Miñón",
        "longitud": -4.0558533
      },
      {
        "orden": 10,
        "latitud": 38.0382344,
        "nombreLugar": "Calle Serpiente IDA",
        "longitud": -4.0553047
      },
      {
        "orden": 11,
        "latitud": 38.0380527,
        "nombreLugar": "Calle Virgen de la Esperanza",
        "longitud": -4.0549963
      },
      {
        "orden": 12,
        "latitud": 38.0380749,
        "nombreLugar": "Calle Guadalupe",
        "longitud": -4.054543
      },
      {
        "orden": 13,
        "latitud": 38.0377485,
        "nombreLugar": "Plaza de la Constitución",
        "longitud": -4.0539797
      },
      {
        "orden": 14,
        "latitud": 38.0371517,
        "nombreLugar": "TRIBUNA Plaza de España",
        "longitud": -4.0542908
      },
      {
        "orden": 15,
        "latitud": 38.0370968,
        "nombreLugar": "Calle Feria",
        "longitud": -4.0551398
      },
      {
        "orden": 16,
        "latitud": 38.037626,
        "nombreLugar": "Plaza de Santa María",
        "longitud": -4.0557661
      },
      {
        "orden": 17,
        "latitud": 38.0379703,
        "nombreLugar": "Calle del Carmen",
        "longitud": -4.0556078
      },
      {
        "orden": 18,
        "latitud": 38.0383706,
        "nombreLugar": "Calle Serpiente VUELTA",
        "longitud": -4.0555864
      },
      {
        "orden": 19,
        "latitud": 38.0383685,
        "nombreLugar": "Calle Alhondiga",
        "longitud": -4.0558599
      },
      {
        "orden": 20,
        "latitud": 38.0384213,
        "nombreLugar": "Calle Mezquita",
        "longitud": -4.0563038
      },
      {
        "orden": 21,
        "latitud": 38.0385924,
        "nombreLugar": "Calle Santa Marina",
        "longitud": -4.0566914
      },
      {
        "orden": 22,
        "latitud": 38.0386938,
        "nombreLugar": "Calle Doctor Fleming",
        "longitud": -4.057252
      },
      {
        "orden": 23,
        "latitud": 38.0391839,
        "nombreLugar": "Calle Cuna",
        "longitud": -4.0574438
      },
      {
        "orden": 24,
        "latitud": 38.0396857,
        "nombreLugar": "Calle Tiradores",
        "longitud": -4.0573244
      },
      {
        "orden": 25,
        "latitud": 38.0398916,
        "nombreLugar": "Plaza Vieja",
        "longitud": -4.0567317
      },
      {
        "orden": 26,
        "latitud": 38.0404134,
        "nombreLugar": "Calle Vendederas",
        "longitud": -4.0573405
      },
      {
        "orden": 27,
        "latitud": 38.0405243,
        "nombreLugar": "Calle Villegas",
        "longitud": -4.0582914
      }
    ],
    "procesionNombre": "Procesión Viernes Santo - La Soledad"
  },
  {
    "puntos": [
      {
        "orden": 1,
        "latitud": 38.0421287,
        "nombreLugar": "Parroquia de San Eufrasio",
        "longitud": -4.0460555
      },
      {
        "orden": 2,
        "latitud": 38.0417717,
        "nombreLugar": "Calle 28 Febrero",
        "longitud": -4.0458892
      },
      {
        "orden": 3,
        "latitud": 38.0411528,
        "nombreLugar": "Calle Cadiz",
        "longitud": -4.0461628
      },
      {
        "orden": 4,
        "latitud": 38.0405064,
        "nombreLugar": "Calle Doctor Torres Laguna",
        "longitud": -4.0469137
      },
      {
        "orden": 5,
        "latitud": 38.0404958,
        "nombreLugar": "Calle La Palma",
        "longitud": -4.0482522
      },
      {
        "orden": 6,
        "latitud": 38.0405127,
        "nombreLugar": "Calle Emperador Trajano",
        "longitud": -4.049832
      },
      {
        "orden": 7,
        "latitud": 38.0405741,
        "nombreLugar": "Calle Larga",
        "longitud": -4.0521398
      },
      {
        "orden": 8,
        "latitud": 38.0397355,
        "nombreLugar": "Calle Los Civiles",
        "longitud": -4.052569
      },
      {
        "orden": 9,
        "latitud": 38.0386603,
        "nombreLugar": "Calle Juego Pelotas",
        "longitud": -4.0530679
      },
      {
        "orden": 10,
        "latitud": 38.0377498,
        "nombreLugar": "Plaza de la Constitución",
        "longitud": -4.0539771
      },
      {
        "orden": 11,
        "latitud": 38.0371752,
        "nombreLugar": "TRIBUNA Plaza de España",
        "longitud": -4.0542883
      },
      {
        "orden": 12,
        "latitud": 38.0368857,
        "nombreLugar": "Calle San Miguel",
        "longitud": -4.0540039
      },
      {
        "orden": 13,
        "latitud": 38.0366407,
        "nombreLugar": "Calle Valdivia",
        "longitud": -4.0538216
      },
      {
        "orden": 14,
        "latitud": 38.0365013,
        "nombreLugar": "Calle Maestra",
        "longitud": -4.0531483
      },
      {
        "orden": 15,
        "latitud": 38.0363745,
        "nombreLugar": "Alt. Virgen María",
        "longitud": -4.0523758
      },
      {
        "orden": 16,
        "latitud": 38.0369132,
        "nombreLugar": "Calle 22 de julio",
        "longitud": -4.0520593
      },
      {
        "orden": 17,
        "latitud": 38.0383645,
        "nombreLugar": "Calle las Monjas",
        "longitud": -4.051995
      },
      {
        "orden": 18,
        "latitud": 38.0394345,
        "nombreLugar": "Calle Ramón y Cajal",
        "longitud": -4.0518555
      },
      {
        "orden": 19,
        "latitud": 38.0397229,
        "nombreLugar": "Calle Emperador Adriano",
        "longitud": -4.0508711
      },
      {
        "orden": 20,
        "latitud": 38.0394503,
        "nombreLugar": "Calle La Palma",
        "longitud": -4.0482466
      },
      {
        "orden": 21,
        "latitud": 38.0396669,
        "nombreLugar": "Calle Historiador Antonio Terrones",
        "longitud": -4.0470704
      },
      {
        "orden": 22,
        "latitud": 38.0405013,
        "nombreLugar": "Calle Historiador Antonio Terrones VUELTA",
        "longitud": -4.047057
      },
      {
        "orden": 23,
        "latitud": 38.0411181,
        "nombreLugar": "Avd. Santo Reino",
        "longitud": -4.0476833
      },
      {
        "orden": 24,
        "latitud": 38.0424595,
        "nombreLugar": "Calle Antonio Gala",
        "longitud": -4.0470678
      },
      {
        "orden": 25,
        "latitud": 38.0423032,
        "nombreLugar": "Calle 28 de Febrero VUELTA",
        "longitud": -4.0462886
      }
    ],
    "procesionNombre": "Procesión Domingo de Resurrección - Cristo Resucitado"
  },
  {
    "puntos": [
      {
        "orden": 1,
        "latitud": 38.0545413,
        "nombreLugar": "Parroquia de la Virgen del Campo",
        "longitud": -4.1027491
      },
      {
        "orden": 2,
        "latitud": 38.0545982,
        "nombreLugar": "Ronda la Muela",
        "longitud": -4.1023967
      },
      {
        "orden": 3,
        "latitud": 38.0533349,
        "nombreLugar": "Ronda de San Isidro",
        "longitud": -4.1020585
      },
      {
        "orden": 4,
        "latitud": 38.0532589,
        "nombreLugar": "Calle Génave",
        "longitud": -4.1025037
      },
      {
        "orden": 5,
        "latitud": 38.0539467,
        "nombreLugar": "Plaza Virgen del Campo",
        "longitud": -4.1030403
      },
      {
        "orden": 6,
        "latitud": 38.054058,
        "nombreLugar": "Ronda Jándula",
        "longitud": -4.1037224
      },
      {
        "orden": 7,
        "latitud": 38.0535795,
        "nombreLugar": "Calle A",
        "longitud": -4.1036138
      },
      {
        "orden": 8,
        "latitud": 38.0530747,
        "nombreLugar": "Ronda Almiares",
        "longitud": -4.1035834
      },
      {
        "orden": 9,
        "latitud": 38.0532167,
        "nombreLugar": "Ronda de San Isidro",
        "longitud": -4.102729
      },
      {
        "orden": 10,
        "latitud": 38.0541114,
        "nombreLugar": "Plaza Virgen del Campo",
        "longitud": -4.1027131
      },
      {
        "orden": 11,
        "latitud": 38.0543259,
        "nombreLugar": "Calle Pío XII",
        "longitud": -4.1027545
      }
    ],
    "procesionNombre": "Procesión Viernes de Dolores"
  }
]
